[{"name":"Brescia","count":723371,"lng":10.2118019,"lat":45.5415526,"result":"success"},{"name":"Milan","count":362629,"lng":9.1859243,"lat":45.4654219,"result":"success"},{"name":"(not set)","count":201851,"lng":"null","lat":"null","result":"Could not execute query http:\/\/maps.googleapis.com\/maps\/api\/geocode\/json?address=%28not%20set%29&sensor=false"},{"name":"Rome","count":134248,"lng":12.4801802,"lat":41.8723889,"result":"success"},{"name":"Bergamo","count":55925,"lng":9.6772698,"lat":45.6982642,"result":"success"},{"name":"Mantua","count":24390,"lng":10.7913751,"lat":45.1564168,"result":"success"},{"name":"Turin","count":22717,"lng":7.6868565,"lat":45.070312,"result":"success"},{"name":"Cremona","count":15279,"lng":10.0226511,"lat":45.133249,"result":"success"},{"name":"Desenzano del Garda","count":14981,"lng":10.5333351,"lat":45.4714531,"result":"success"},{"name":"Como","count":12323,"lng":9.0851765,"lat":45.8080597,"result":"success"}]